[{"key":"alta","name":"Alta, UT","latitude":40.5883,"longitude":-111.6386,"verified":true,"source":"snotel","region":"Utah","country":"USA","country_code":"USA","score":63.6,"grade":"A-","in_season":true,"cover_depth":95.0,"season_grade":"C+","base_grade":"B-","base_depth":95.0,"fresh_7d":44.0,"season_progress":0.56,"incoming_inches":1.0,"alert":false,"status":"live","region_score":83.0,"region_grade":"A-"},{"key":"alyeska","name":"Alyeska, AK","latitude":60.97,"longitude":-149.09,"verified":true,"source":"snotel","region":"Alaska","country":"USA","country_code":"USA","score":49.9,"grade":"B","in_season":true,"cover_depth":90.0,"season_grade":"B+","base_grade":"A-","base_depth":90.0,"fresh_7d":4.0,"season_progress":0.56,"incoming_inches":2.0,"alert":false,"status":"live","region_score":null,"region_grade":null},{"key":"arapahoe_basin","name":"Arapahoe Basin, CO","latitude":39.6425,"longitude":-105.8719,"verified":true,"source":"snotel","region":"Colorado","country":"USA","country_code":"USA","score":47.3,"grade":"B","in_season":true,"cover_depth":46.0,"season_grade":"C","base_grade":"C+","base_depth":46.0,"fresh_7d":9.0,"season_progress":0.55,"incoming_inches":0.0,"alert":false,"status":"live","region_score":44.0,"region_grade":"C+"},{"key":"aspen","name":"Aspen Mountain, CO","latitude":39.1859,"longitude":-106.8175,"verified":false,"source":"snotel","region":"Colorado","country":"USA","country_code":"USA","score":60.2,"grade":"A-","in_season":true,"cover_depth":46.0,"season_grade":"C+","base_grade":"B","base_depth":46.0,"fresh_7d":12.0,"season_progress":0.59,"incoming_inches":5.0,"alert":false,"status":"live","region_score":67.0,"region_grade":"B"},{"key":"bachelor","name":"Mt Bachelor, OR","latitude":43.9793,"longitude":-121.688,"verified":false,"source":"snotel","region":"Pacific Northwest","country":"USA","country_code":"USA","score":61.3,"grade":"A-","in_season":true,"cover_depth":48.0,"season_grade":"C+","base_grade":"A-","base_depth":48.0,"fresh_7d":19.0,"season_progress":0.53,"incoming_inches":1.0,"alert":false,"status":"live","region_score":25.0,"region_grade":"C"},{"key":"baker","name":"Mt Baker, WA","latitude":48.857,"longitude":-121.679,"verified":true,"source":"snotel","region":"Pacific Northwest","country":"USA","country_code":"USA","score":75.8,"grade":"A","in_season":true,"cover_depth":88.0,"season_grade":"B+","base_grade":"A-","base_depth":88.0,"fresh_7d":5.0,"season_progress":0.53,"incoming_inches":4.0,"alert":false,"status":"live","region_score":50.0,"region_grade":"B-"},{"key":"big_sky","name":"Big Sky, MT","latitude":45.286,"longitude":-111.401,"verified":true,"source":"snotel","region":"Northern Rockies","country":"USA","country_code":"USA","score":66.0,"grade":"A-","in_season":true,"cover_depth":56.0,"season_grade":"B-","base_grade":"B","base_depth":56.0,"fresh_7d":12.0,"season_progress":0.56,"incoming_inches":1.0,"alert":false,"status":"live","region_score":33.0,"region_grade":"C"},{"key":"big_white","name":"Big White, BC","latitude":49.716,"longitude":-118.933,"verified":false,"source":"bcsws","region":"British Columbia","country":"Canada","country_code":"CAN","score":50.0,"grade":"B+","in_season":true,"cover_depth":49.5,"season_grade":"B-","base_grade":"N/A","base_depth":null,"fresh_7d":null,"season_progress":0.58,"incoming_inches":0.0,"alert":false,"status":"live","region_score":100.0,"region_grade":"A+"},{"key":"blue_mountain","name":"Blue Mountain, ON","latitude":44.501,"longitude":-80.311,"verified":false,"source":"eccc","region":"Eastern Canada","country":"Canada","country_code":"CAN","score":39.8,"grade":"B","in_season":true,"cover_depth":14.6,"season_grade":"C+","base_grade":"N/A","base_depth":null,"fresh_7d":15.8,"season_progress":0.65,"incoming_inches":2.0,"alert":false,"status":"live","region_score":100.0,"region_grade":"A+"},{"key":"bogus_basin","name":"Bogus Basin, ID","latitude":43.7626,"longitude":-116.101,"verified":true,"source":"snotel","region":"Northern Rockies","country":"USA","country_code":"USA","score":80.7,"grade":"A","in_season":true,"cover_depth":76.0,"season_grade":"B","base_grade":"A","base_depth":76.0,"fresh_7d":21.0,"season_progress":0.65,"incoming_inches":3.0,"alert":false,"status":"live","region_score":83.0,"region_grade":"A-"},{"key":"breckenridge","name":"Breckenridge, CO","latitude":39.4817,"longitude":-106.0384,"verified":true,"source":"snotel","region":"Colorado","country":"USA","country_code":"USA","score":43.8,"grade":"B","in_season":true,"cover_depth":40.0,"season_grade":"B-","base_grade":"C-","base_depth":40.0,"fresh_7d":6.0,"season_progress":0.59,"incoming_inches":3.0,"alert":false,"status":"live","region_score":11.0,"region_grade":"D"},{"key":"brian_head","name":"Brian Head, UT","latitude":37.7025,"longitude":-112.8497,"verified":true,"source":"snotel","region":"Utah","country":"USA","country_code":"USA","score":61.9,"grade":"A-","in_season":true,"cover_depth":47.0,"season_grade":"B-","base_grade":"B-","base_depth":47.0,"fresh_7d":19.0,"season_progress":0.61,"incoming_inches":3.0,"alert":false,"status":"live","region_score":67.0,"region_grade":"B"},{"key":"bridger_bowl","name":"Bridger Bowl, MT","latitude":45.818,"longitude":-110.899,"verified":true,"source":"snotel","region":"Northern Rockies","country":"USA","country_code":"USA","score":80.3,"grade":"A","in_season":true,"cover_depth":69.0,"season_grade":"B","base_grade":"A-","base_depth":69.0,"fresh_7d":17.0,"season_progress":0.56,"incoming_inches":2.0,"alert":false,"status":"live","region_score":67.0,"region_grade":"B"},{"key":"brighton","name":"Brighton, UT","latitude":40.5977,"longitude":-111.5836,"verified":true,"source":"snotel","region":"Utah","country":"USA","country_code":"USA","score":54.9,"grade":"B+","in_season":true,"cover_depth":54.0,"season_grade":"C","base_grade":"B-","base_depth":54.0,"fresh_7d":22.0,"season_progress":0.56,"incoming_inches":0.0,"alert":false,"status":"live","region_score":0.0,"region_grade":"F"},{"key":"cardrona","name":"Cardrona, NZ","latitude":-44.8745,"longitude":168.9481,"verified":true,"source":"openmeteo","region":"New Zealand","country":"New Zealand","country_code":"NZL","score":12.0,"grade":"D","in_season":false,"cover_depth":0.0,"season_grade":"B","base_grade":"F","base_depth":0.0,"fresh_7d":0.0,"season_progress":0.0,"incoming_inches":0.0,"alert":false,"status":"live","region_score":null,"region_grade":null},{"key":"cerro_catedral","name":"Cerro Catedral, AR","latitude":-41.1672,"longitude":-71.4406,"verified":true,"source":"openmeteo","region":"Argentina","country":"Argentina","country_code":"ARG","score":9.7,"grade":"D","in_season":false,"cover_depth":0.0,"season_grade":"B","base_grade":"F","base_depth":0.0,"fresh_7d":0.0,"season_progress":0.0,"incoming_inches":0.0,"alert":false,"status":"live","region_score":null,"region_grade":null},{"key":"copper","name":"Copper Mountain, CO","latitude":39.5022,"longitude":-106.1497,"verified":true,"source":"snotel","region":"Colorado","country":"USA","country_code":"USA","score":45.5,"grade":"B","in_season":true,"cover_depth":43.0,"season_grade":"C","base_grade":"C+","base_depth":43.0,"fresh_7d":8.0,"season_progress":0.59,"incoming_inches":1.0,"alert":false,"status":"live","region_score":33.0,"region_grade":"C"},{"key":"coronet_peak","name":"Coronet Peak, NZ","latitude":-44.9206,"longitude":168.735,"verified":true,"source":"openmeteo","region":"New Zealand","country":"New Zealand","country_code":"NZL","score":7.8,"grade":"F","in_season":false,"cover_depth":0.0,"season_grade":"F","base_grade":"F","base_depth":0.0,"fresh_7d":0.0,"season_progress":0.0,"incoming_inches":0.0,"alert":false,"status":"live","region_score":null,"region_grade":null},{"key":"crystal_mtn","name":"Crystal Mountain, WA","latitude":46.935,"longitude":-121.474,"verified":true,"source":"snotel","region":"Pacific Northwest","country":"USA","country_code":"USA","score":18.0,"grade":"C","in_season":true,"cover_depth":131.0,"season_grade":"F","base_grade":"A","base_depth":131.0,"fresh_7d":26.0,"season_progress":0.53,"incoming_inches":1.0,"alert":false,"status":"live","region_score":0.0,"region_grade":"F"},{"key":"deer_valley","name":"Deer Valley, UT","latitude":40.6374,"longitude":-111.4783,"verified":true,"source":"snotel","region":"Utah","country":"USA","country_code":"USA","score":56.3,"grade":"B+","in_season":true,"cover_depth":58.0,"season_grade":"C","base_grade":"B","base_depth":58.0,"fresh_7d":22.0,"season_progress":0.56,"incoming_inches":1.0,"alert":false,"status":"live","region_score":33.0,"region_grade":"C"},{"key":"falls_creek","name":"Falls Creek, AU","latitude":-36.8656,"longitude":147.2861,"verified":true,"source":"openmeteo","region":"Australia","country":"Australia","country_code":"AUS","score":12.0,"grade":"D","in_season":false,"cover_depth":0.0,"season_grade":"A-","base_grade":"F","base_depth":0.0,"fresh_7d":0.0,"season_progress":0.0,"incoming_inches":0.0,"alert":false,"status":"live","region_score":null,"region_grade":null},{"key":"fernie","name":"Fernie, BC","latitude":49.463,"longitude":-115.091,"verified":true,"source":"eccc","region":"British Columbia","country":"Canada","country_code":"CAN","score":10.2,"grade":"D","in_season":false,"cover_depth":4.7,"season_grade":"F","base_grade":"N/A","base_depth":null,"fresh_7d":0.6,"season_progress":0.6,"incoming_inches":0.0,"alert":false,"status":"live","region_score":null,"region_grade":null},{"key":"grand_targhee","name":"Grand Targhee, WY","latitude":43.7871,"longitude":-110.9573,"verified":true,"source":"snotel","region":"Northern Rockies","country":"USA","country_code":"USA","score":84.6,"grade":"A","in_season":true,"cover_depth":117.0,"season_grade":"B-","base_grade":"A","base_depth":117.0,"fresh_7d":32.0,"season_progress":0.56,"incoming_inches":16.0,"alert":true,"status":"live","region_score":100.0,"region_grade":"A+"},{"key":"heavenly","name":"Heavenly, CA","latitude":38.935,"longitude":-119.94,"verified":true,"source":"snotel","region":"Tahoe & Sierra","country":"USA","country_code":"USA","score":38.1,"grade":"B-","in_season":true,"cover_depth":46.0,"season_grade":"D","base_grade":"C+","base_depth":46.0,"fresh_7d":10.0,"season_progress":0.56,"incoming_inches":4.0,"alert":false,"status":"live","region_score":20.0,"region_grade":"C-"},{"key":"hood_meadows","name":"Mt Hood Meadows, OR","latitude":45.331,"longitude":-121.665,"verified":true,"source":"snotel","region":"Pacific Northwest","country":"USA","country_code":"USA","score":86.3,"grade":"A+","in_season":true,"cover_depth":137.0,"season_grade":"B","base_grade":"A-","base_depth":137.0,"fresh_7d":43.0,"season_progress":0.53,"incoming_inches":9.0,"alert":false,"status":"live","region_score":75.0,"region_grade":"B+"},{"key":"hunter","name":"Hunter Mountain, NY","latitude":42.1779,"longitude":-74.2318,"verified":false,"source":"acis","region":"Northeast","country":"USA","country_code":"USA","score":12.0,"grade":"D","in_season":false,"cover_depth":5.0,"season_grade":"A","base_grade":"B-","base_depth":5.0,"fresh_7d":0.5,"season_progress":0.61,"incoming_inches":4.5,"alert":false,"status":"live","region_score":null,"region_grade":null},{"key":"jackson_hole","name":"Jackson Hole, WY","latitude":43.5875,"longitude":-110.8279,"verified":true,"source":"snotel","region":"Northern Rockies","country":"USA","country_code":"USA","score":69.9,"grade":"A-","in_season":true,"cover_depth":72.0,"season_grade":"C+","base_grade":"B","base_depth":72.0,"fresh_7d":13.0,"season_progress":0.56,"incoming_inches":9.0,"alert":false,"status":"live","region_score":50.0,"region_grade":"B-"},{"key":"june_mountain","name":"June Mountain, CA","latitude":37.7669,"longitude":-119.09,"verified":false,"source":"cdec","region":"Tahoe & Sierra","country":"USA","country_code":"USA","score":1.0,"grade":"F","in_season":null,"cover_depth":null,"season_grade":"F","base_grade":"N/A","base_depth":null,"fresh_7d":null,"season_progress":0.57,"incoming_inches":0.0,"alert":false,"status":"live","region_score":null,"region_grade":null},{"key":"keystone","name":"Keystone, CO","latitude":39.6084,"longitude":-105.9437,"verified":true,"source":"snotel","region":"Colorado","country":"USA","country_code":"USA","score":48.5,"grade":"B","in_season":true,"cover_depth":46.0,"season_grade":"C","base_grade":"C+","base_depth":46.0,"fresh_7d":9.0,"season_progress":0.59,"incoming_inches":0.0,"alert":false,"status":"live","region_score":56.0,"region_grade":"B-"},{"key":"kicking_horse","name":"Kicking Horse, BC","latitude":51.298,"longitude":-117.047,"verified":false,"source":"eccc","region":"British Columbia","country":"Canada","country_code":"CAN","score":11.9,"grade":"D","in_season":false,"cover_depth":2.5,"season_grade":"C","base_grade":"N/A","base_depth":null,"fresh_7d":0.0,"season_progress":0.6,"incoming_inches":0.0,"alert":false,"status":"live","region_score":null,"region_grade":null},{"key":"killington","name":"Killington, VT","latitude":43.6045,"longitude":-72.8201,"verified":false,"source":"acis","region":"Northeast","country":"USA","country_code":"USA","score":39.3,"grade":"B","in_season":true,"cover_depth":16.0,"season_grade":"B","base_grade":"B+","base_depth":16.0,"fresh_7d":4.0,"season_progress":0.61,"incoming_inches":3.0,"alert":false,"status":"live","region_score":62.0,"region_grade":"B"},{"key":"kirkwood","name":"Kirkwood, CA","latitude":38.6847,"longitude":-120.0654,"verified":true,"source":"snotel","region":"Tahoe & Sierra","country":"USA","country_code":"USA","score":47.7,"grade":"B","in_season":true,"cover_depth":63.0,"season_grade":"C-","base_grade":"C+","base_depth":63.0,"fresh_7d":7.0,"season_progress":0.56,"incoming_inches":2.0,"alert":false,"status":"live","region_score":80.0,"region_grade":"A-"},{"key":"lake_louise","name":"Lake Louise, AB","latitude":51.4419,"longitude":-116.1653,"verified":true,"source":"openmeteo","region":"Alberta","country":"Canada","country_code":"CAN","score":48.1,"grade":"B","in_season":true,"cover_depth":53.9,"season_grade":"B","base_grade":"A","base_depth":54.0,"fresh_7d":0.1,"season_progress":0.57,"incoming_inches":1.5,"alert":false,"status":"live","region_score":50.0,"region_grade":"B-"},{"key":"las_lenas","name":"Las Lenas, AR","latitude":-35.1497,"longitude":-70.0781,"verified":true,"source":"openmeteo","region":"Argentina","country":"Argentina","country_code":"ARG","score":12.0,"grade":"D","in_season":false,"cover_depth":0.0,"season_grade":"B+","base_grade":"F","base_depth":0.0,"fresh_7d":0.0,"season_progress":0.0,"incoming_inches":0.0,"alert":false,"status":"live","region_score":null,"region_grade":null},{"key":"mammoth","name":"Mammoth Mountain, CA","latitude":37.6308,"longitude":-119.0326,"verified":true,"source":"cdec","region":"Tahoe & Sierra","country":"USA","country_code":"USA","score":49.7,"grade":"B","in_season":true,"cover_depth":82.0,"season_grade":"C","base_grade":"C+","base_depth":82.0,"fresh_7d":14.0,"season_progress":0.52,"incoming_inches":0.0,"alert":false,"status":"live","region_score":100.0,"region_grade":"A+"},{"key":"marmot_basin","name":"Marmot Basin, AB","latitude":52.7997,"longitude":-118.0817,"verified":true,"source":"openmeteo","region":"Alberta","country":"Canada","country_code":"CAN","score":32.8,"grade":"B-","in_season":true,"cover_depth":57.9,"season_grade":"C+","base_grade":"A-","base_depth":58.0,"fresh_7d":0.1,"season_progress":0.57,"incoming_inches":2.8,"alert":false,"status":"live","region_score":25.0,"region_grade":"C"},{"key":"mont_sainte_anne","name":"Mont-Sainte-Anne, QC","latitude":47.075,"longitude":-70.904,"verified":true,"source":"eccc","region":"Eastern Canada","country":"Canada","country_code":"CAN","score":23.8,"grade":"C+","in_season":true,"cover_depth":7.2,"season_grade":"C","base_grade":"N/A","base_depth":null,"fresh_7d":12.1,"season_progress":0.61,"incoming_inches":3.1,"alert":false,"status":"live","region_score":0.0,"region_grade":"F"},{"key":"mont_tremblant","name":"Mont Tremblant, QC","latitude":46.21,"longitude":-74.585,"verified":false,"source":"eccc","region":"Eastern Canada","country":"Canada","country_code":"CAN","score":31.3,"grade":"B-","in_season":true,"cover_depth":5.8,"season_grade":"B","base_grade":"N/A","base_depth":null,"fresh_7d":9.8,"season_progress":0.63,"incoming_inches":0.0,"alert":false,"status":"live","region_score":50.0,"region_grade":"B-"},{"key":"mt_buller","name":"Mt Buller, AU","latitude":-37.1467,"longitude":146.4473,"verified":true,"source":"openmeteo","region":"Australia","country":"Australia","country_code":"AUS","score":11.4,"grade":"D","in_season":false,"cover_depth":0.0,"season_grade":"B+","base_grade":"F","base_depth":0.0,"fresh_7d":0.0,"season_progress":0.0,"incoming_inches":0.0,"alert":false,"status":"live","region_score":null,"region_grade":null},{"key":"mt_hotham","name":"Mt Hotham, AU","latitude":-36.9761,"longitude":147.1358,"verified":true,"source":"openmeteo","region":"Australia","country":"Australia","country_code":"AUS","score":11.2,"grade":"D","in_season":false,"cover_depth":0.0,"season_grade":"B+","base_grade":"F","base_depth":0.0,"fresh_7d":0.0,"season_progress":0.0,"incoming_inches":0.0,"alert":false,"status":"live","region_score":null,"region_grade":null},{"key":"mt_hutt","name":"Mt Hutt, NZ","latitude":-43.4706,"longitude":171.5306,"verified":true,"source":"openmeteo","region":"New Zealand","country":"New Zealand","country_code":"NZL","score":12.0,"grade":"D","in_season":false,"cover_depth":0.0,"season_grade":"A-","base_grade":"F","base_depth":0.0,"fresh_7d":0.0,"season_progress":0.0,"incoming_inches":0.0,"alert":false,"status":"live","region_score":null,"region_grade":null},{"key":"mt_rose","name":"Mt Rose, NV","latitude":39.3287,"longitude":-119.885,"verified":true,"source":"snotel","region":"Tahoe & Sierra","country":"USA","country_code":"USA","score":46.9,"grade":"B","in_season":true,"cover_depth":73.0,"season_grade":"C-","base_grade":"C","base_depth":73.0,"fresh_7d":11.0,"season_progress":0.56,"incoming_inches":3.0,"alert":false,"status":"live","region_score":60.0,"region_grade":"B"},{"key":"nakiska","name":"Nakiska, AB","latitude":50.942,"longitude":-115.156,"verified":true,"source":"eccc","region":"Alberta","country":"Canada","country_code":"CAN","score":12.0,"grade":"D","in_season":false,"cover_depth":2.9,"season_grade":"B+","base_grade":"N/A","base_depth":null,"fresh_7d":0.6,"season_progress":0.62,"incoming_inches":0.4,"alert":false,"status":"live","region_score":null,"region_grade":null},{"key":"nevados_de_chillan","name":"Nevados de Chillan, CL","latitude":-36.9058,"longitude":-71.4064,"verified":true,"source":"openmeteo","region":"Chile","country":"Chile","country_code":"CHL","score":12.0,"grade":"D","in_season":false,"cover_depth":0.0,"season_grade":"A","base_grade":"F","base_depth":0.0,"fresh_7d":0.0,"season_progress":0.0,"incoming_inches":0.0,"alert":false,"status":"live","region_score":null,"region_grade":null},{"key":"norquay","name":"Mt Norquay, AB","latitude":51.2097,"longitude":-115.5952,"verified":true,"source":"openmeteo","region":"Alberta","country":"Canada","country_code":"CAN","score":50.3,"grade":"B+","in_season":true,"cover_depth":39.8,"season_grade":"B","base_grade":"A","base_depth":40.0,"fresh_7d":0.0,"season_progress":0.6,"incoming_inches":0.2,"alert":false,"status":"live","region_score":75.0,"region_grade":"B+"},{"key":"palisades_tahoe","name":"Palisades Tahoe, CA","latitude":39.197,"longitude":-120.2357,"verified":true,"source":"snotel","region":"Tahoe & Sierra","country":"USA","country_code":"USA","score":40.2,"grade":"B","in_season":true,"cover_depth":61.0,"season_grade":"D","base_grade":"C+","base_depth":61.0,"fresh_7d":19.0,"season_progress":0.56,"incoming_inches":1.0,"alert":false,"status":"live","region_score":40.0,"region_grade":"C+"},{"key":"park_city","name":"Park City, UT","latitude":40.6514,"longitude":-111.508,"verified":true,"source":"snotel","region":"Utah","country":"USA","country_code":"USA","score":56.3,"grade":"B+","in_season":true,"cover_depth":58.0,"season_grade":"C","base_grade":"B","base_depth":58.0,"fresh_7d":22.0,"season_progress":0.56,"incoming_inches":1.0,"alert":false,"status":"live","region_score":33.0,"region_grade":"C"},{"key":"perisher","name":"Perisher, AU","latitude":-36.4058,"longitude":148.4131,"verified":true,"source":"openmeteo","region":"Australia","country":"Australia","country_code":"AUS","score":12.0,"grade":"D","in_season":false,"cover_depth":0.0,"season_grade":"A-","base_grade":"F","base_depth":0.0,"fresh_7d":0.0,"season_progress":0.0,"incoming_inches":0.0,"alert":false,"status":"live","region_score":null,"region_grade":null},{"key":"portillo","name":"Portillo, CL","latitude":-32.8353,"longitude":-70.1281,"verified":true,"source":"openmeteo","region":"Chile","country":"Chile","country_code":"CHL","score":12.0,"grade":"D","in_season":false,"cover_depth":0.4,"season_grade":"A","base_grade":"A-","base_depth":0.0,"fresh_7d":2.3,"season_progress":0.0,"incoming_inches":0.0,"alert":false,"status":"live","region_score":null,"region_grade":null},{"key":"powder_mtn","name":"Powder Mountain, UT","latitude":41.38,"longitude":-111.78,"verified":true,"source":"snotel","region":"Utah","country":"USA","country_code":"USA","score":null,"grade":"N/A","in_season":null,"cover_depth":null,"season_grade":"N/A","base_grade":"N/A","base_depth":null,"fresh_7d":null,"season_progress":0.56,"incoming_inches":0.0,"alert":false,"status":"live","region_score":null,"region_grade":null},{"key":"red_mountain","name":"Red Mountain, BC","latitude":49.101,"longitude":-117.82,"verified":false,"source":"eccc","region":"British Columbia","country":"Canada","country_code":"CAN","score":25.4,"grade":"C+","in_season":true,"cover_depth":6.6,"season_grade":"B-","base_grade":"N/A","base_depth":null,"fresh_7d":2.6,"season_progress":0.62,"incoming_inches":0.2,"alert":false,"status":"live","region_score":43.0,"region_grade":"C+"},{"key":"revelstoke","name":"Revelstoke, BC","latitude":50.958,"longitude":-118.163,"verified":true,"source":"bcsws","region":"British Columbia","country":"Canada","country_code":"CAN","score":25.9,"grade":"C+","in_season":true,"cover_depth":108.0,"season_grade":"C+","base_grade":"N/A","base_depth":null,"fresh_7d":null,"season_progress":0.58,"incoming_inches":0.0,"alert":false,"status":"live","region_score":57.0,"region_grade":"B-"},{"key":"schweitzer","name":"Schweitzer, ID","latitude":48.369,"longitude":-116.623,"verified":true,"source":"snotel","region":"Northern Rockies","country":"USA","country_code":"USA","score":63.1,"grade":"A-","in_season":true,"cover_depth":98.0,"season_grade":"B","base_grade":"C+","base_depth":98.0,"fresh_7d":10.0,"season_progress":0.53,"incoming_inches":3.0,"alert":false,"status":"live","region_score":17.0,"region_grade":"C-"},{"key":"silver_star","name":"Silver Star, BC","latitude":50.3583,"longitude":-119.0625,"verified":true,"source":"bcsws","region":"British Columbia","country":"Canada","country_code":"CAN","score":33.8,"grade":"B-","in_season":true,"cover_depth":74.6,"season_grade":"C","base_grade":"N/A","base_depth":null,"fresh_7d":null,"season_progress":0.58,"incoming_inches":0.0,"alert":false,"status":"live","region_score":71.0,"region_grade":"B+"},{"key":"snowbird","name":"Snowbird, UT","latitude":40.581,"longitude":-111.6556,"verified":true,"source":"snotel","region":"Utah","country":"USA","country_code":"USA","score":63.6,"grade":"A-","in_season":true,"cover_depth":95.0,"season_grade":"C+","base_grade":"B-","base_depth":95.0,"fresh_7d":44.0,"season_progress":0.56,"incoming_inches":1.0,"alert":false,"status":"live","region_score":83.0,"region_grade":"A-"},{"key":"solitude","name":"Solitude, UT","latitude":40.6199,"longitude":-111.5919,"verified":true,"source":"snotel","region":"Utah","country":"USA","country_code":"USA","score":54.9,"grade":"B+","in_season":true,"cover_depth":54.0,"season_grade":"C","base_grade":"B-","base_depth":54.0,"fresh_7d":22.0,"season_progress":0.56,"incoming_inches":0.0,"alert":false,"status":"live","region_score":0.0,"region_grade":"F"},{"key":"steamboat","name":"Steamboat, CO","latitude":40.457,"longitude":-106.8045,"verified":true,"source":"snotel","region":"Colorado","country":"USA","country_code":"USA","score":63.4,"grade":"A-","in_season":true,"cover_depth":59.0,"season_grade":"C+","base_grade":"B","base_depth":59.0,"fresh_7d":18.0,"season_progress":0.59,"incoming_inches":0.0,"alert":false,"status":"live","region_score":78.0,"region_grade":"B+"},{"key":"stevens_pass","name":"Stevens Pass, WA","latitude":47.7448,"longitude":-121.089,"verified":true,"source":"snotel","region":"Pacific Northwest","country":"USA","country_code":"USA","score":86.4,"grade":"A+","in_season":true,"cover_depth":123.0,"season_grade":"A-","base_grade":"A","base_depth":123.0,"fresh_7d":28.0,"season_progress":0.53,"incoming_inches":4.0,"alert":false,"status":"live","region_score":100.0,"region_grade":"A+"},{"key":"stowe","name":"Stowe, VT","latitude":44.5303,"longitude":-72.7814,"verified":false,"source":"acis","region":"Northeast","country":"USA","country_code":"USA","score":47.2,"grade":"B","in_season":true,"cover_depth":25.0,"season_grade":"B-","base_grade":"A-","base_depth":25.0,"fresh_7d":4.6,"season_progress":0.61,"incoming_inches":3.2,"alert":false,"status":"live","region_score":88.0,"region_grade":"A-"},{"key":"stratton","name":"Stratton, VT","latitude":43.1134,"longitude":-72.9081,"verified":false,"source":"acis","region":"Northeast","country":"USA","country_code":"USA","score":46.2,"grade":"B","in_season":true,"cover_depth":26.0,"season_grade":"B-","base_grade":"B","base_depth":26.0,"fresh_7d":2.5,"season_progress":0.61,"incoming_inches":5.9,"alert":false,"status":"live","region_score":75.0,"region_grade":"B+"},{"key":"sugarbush","name":"Sugarbush, VT","latitude":44.136,"longitude":-72.9037,"verified":false,"source":"acis","region":"Northeast","country":"USA","country_code":"USA","score":26.0,"grade":"C+","in_season":true,"cover_depth":16.0,"season_grade":"C","base_grade":"B+","base_depth":16.0,"fresh_7d":3.0,"season_progress":0.61,"incoming_inches":3.4,"alert":false,"status":"live","region_score":12.0,"region_grade":"D"},{"key":"sugarloaf","name":"Sugarloaf, ME","latitude":45.0314,"longitude":-70.3131,"verified":false,"source":"acis","region":"Northeast","country":"USA","country_code":"USA","score":26.6,"grade":"C+","in_season":true,"cover_depth":16.0,"season_grade":"C","base_grade":"B-","base_depth":16.0,"fresh_7d":2.5,"season_progress":0.61,"incoming_inches":0.0,"alert":false,"status":"live","region_score":25.0,"region_grade":"C"},{"key":"sun_peaks","name":"Sun Peaks, BC","latitude":50.884,"longitude":-119.888,"verified":false,"source":"eccc","region":"British Columbia","country":"Canada","country_code":"CAN","score":12.0,"grade":"D","in_season":false,"cover_depth":2.0,"season_grade":"B-","base_grade":"N/A","base_depth":null,"fresh_7d":1.5,"season_progress":0.62,"incoming_inches":0.0,"alert":false,"status":"live","region_score":null,"region_grade":null},{"key":"sun_valley","name":"Sun Valley, ID","latitude":43.671,"longitude":-114.351,"verified":false,"source":"snotel","region":"Northern Rockies","country":"USA","country_code":"USA","score":40.1,"grade":"B","in_season":true,"cover_depth":38.0,"season_grade":"C","base_grade":"B","base_depth":38.0,"fresh_7d":2.0,"season_progress":0.56,"incoming_inches":2.0,"alert":false,"status":"live","region_score":0.0,"region_grade":"F"},{"key":"sunday_river","name":"Sunday River, ME","latitude":44.4735,"longitude":-70.8568,"verified":false,"source":"acis","region":"Northeast","country":"USA","country_code":"USA","score":27.2,"grade":"C+","in_season":true,"cover_depth":16.0,"season_grade":"C+","base_grade":"B-","base_depth":16.0,"fresh_7d":3.5,"season_progress":0.61,"incoming_inches":0.2,"alert":false,"status":"live","region_score":38.0,"region_grade":"C+"},{"key":"sunshine_village","name":"Sunshine Village, AB","latitude":51.0784,"longitude":-115.7767,"verified":true,"source":"openmeteo","region":"Alberta","country":"Canada","country_code":"CAN","score":50.5,"grade":"B+","in_season":true,"cover_depth":48.8,"season_grade":"B","base_grade":"A","base_depth":49.0,"fresh_7d":0.0,"season_progress":0.52,"incoming_inches":0.6,"alert":false,"status":"live","region_score":100.0,"region_grade":"A+"},{"key":"taos","name":"Taos Ski Valley, NM","latitude":36.596,"longitude":-105.447,"verified":true,"source":"snotel","region":"Southwest","country":"USA","country_code":"USA","score":66.1,"grade":"A-","in_season":true,"cover_depth":54.0,"season_grade":"C","base_grade":"A-","base_depth":54.0,"fresh_7d":19.0,"season_progress":0.59,"incoming_inches":1.0,"alert":false,"status":"live","region_score":null,"region_grade":null},{"key":"telluride","name":"Telluride, CO","latitude":37.9375,"longitude":-107.8123,"verified":true,"source":"snotel","region":"Colorado","country":"USA","country_code":"USA","score":74.0,"grade":"A","in_season":true,"cover_depth":66.0,"season_grade":"B-","base_grade":"B+","base_depth":66.0,"fresh_7d":20.0,"season_progress":0.59,"incoming_inches":1.0,"alert":false,"status":"live","region_score":89.0,"region_grade":"A"},{"key":"the_remarkables","name":"The Remarkables, NZ","latitude":-45.0553,"longitude":168.8144,"verified":true,"source":"openmeteo","region":"New Zealand","country":"New Zealand","country_code":"NZL","score":12.0,"grade":"D","in_season":false,"cover_depth":0.0,"season_grade":"C","base_grade":"F","base_depth":0.0,"fresh_7d":0.0,"season_progress":0.0,"incoming_inches":0.0,"alert":false,"status":"live","region_score":null,"region_grade":null},{"key":"thredbo","name":"Thredbo, AU","latitude":-36.5004,"longitude":148.3025,"verified":true,"source":"openmeteo","region":"Australia","country":"Australia","country_code":"AUS","score":12.0,"grade":"D","in_season":false,"cover_depth":0.0,"season_grade":"A-","base_grade":"F","base_depth":0.0,"fresh_7d":0.0,"season_progress":0.0,"incoming_inches":0.0,"alert":false,"status":"live","region_score":null,"region_grade":null},{"key":"treble_cone","name":"Treble Cone, NZ","latitude":-44.6316,"longitude":168.8975,"verified":true,"source":"openmeteo","region":"New Zealand","country":"New Zealand","country_code":"NZL","score":12.0,"grade":"D","in_season":false,"cover_depth":0.0,"season_grade":"A","base_grade":"F","base_depth":0.0,"fresh_7d":0.0,"season_progress":0.0,"incoming_inches":0.0,"alert":false,"status":"live","region_score":null,"region_grade":null},{"key":"vail","name":"Vail, CO","latitude":39.6061,"longitude":-106.355,"verified":true,"source":"snotel","region":"Colorado","country":"USA","country_code":"USA","score":43.9,"grade":"B","in_season":true,"cover_depth":44.0,"season_grade":"C+","base_grade":"C","base_depth":44.0,"fresh_7d":5.0,"season_progress":0.59,"incoming_inches":1.0,"alert":false,"status":"live","region_score":22.0,"region_grade":"C-"},{"key":"valle_nevado","name":"Valle Nevado, CL","latitude":-33.3547,"longitude":-70.2489,"verified":true,"source":"openmeteo","region":"Chile","country":"Chile","country_code":"CHL","score":12.0,"grade":"D","in_season":false,"cover_depth":0.0,"season_grade":"B-","base_grade":"F","base_depth":0.0,"fresh_7d":0.4,"season_progress":0.0,"incoming_inches":0.0,"alert":false,"status":"live","region_score":null,"region_grade":null},{"key":"whakapapa","name":"Whakapapa, NZ","latitude":-39.2546,"longitude":175.5606,"verified":true,"source":"openmeteo","region":"New Zealand","country":"New Zealand","country_code":"NZL","score":12.0,"grade":"D","in_season":false,"cover_depth":0.0,"season_grade":"A-","base_grade":"F","base_depth":0.0,"fresh_7d":0.0,"season_progress":0.0,"incoming_inches":0.0,"alert":false,"status":"live","region_score":null,"region_grade":null},{"key":"whistler_blackcomb","name":"Whistler Blackcomb, BC","latitude":50.115,"longitude":-122.948,"verified":true,"source":"eccc","region":"British Columbia","country":"Canada","country_code":"CAN","score":47.0,"grade":"B","in_season":true,"cover_depth":19.5,"season_grade":"B","base_grade":"N/A","base_depth":null,"fresh_7d":12.2,"season_progress":0.56,"incoming_inches":7.1,"alert":false,"status":"live","region_score":86.0,"region_grade":"A-"},{"key":"whiteface","name":"Whiteface, NY","latitude":44.3659,"longitude":-73.9026,"verified":true,"source":"acis","region":"Northeast","country":"USA","country_code":"USA","score":49.1,"grade":"B","in_season":true,"cover_depth":23.0,"season_grade":"B+","base_grade":"B+","base_depth":23.0,"fresh_7d":4.5,"season_progress":0.61,"incoming_inches":3.8,"alert":false,"status":"live","region_score":100.0,"region_grade":"A+"},{"key":"wildcat","name":"Wildcat, NH","latitude":44.2646,"longitude":-71.239,"verified":true,"source":"acis","region":"Northeast","country":"USA","country_code":"USA","score":33.3,"grade":"B-","in_season":true,"cover_depth":26.0,"season_grade":"B-","base_grade":"C+","base_depth":26.0,"fresh_7d":2.0,"season_progress":0.61,"incoming_inches":1.7,"alert":false,"status":"live","region_score":50.0,"region_grade":"B-"},{"key":"winter_park","name":"Winter Park, CO","latitude":39.8868,"longitude":-105.7625,"verified":true,"source":"snotel","region":"Colorado","country":"USA","country_code":"USA","score":35.6,"grade":"B-","in_season":true,"cover_depth":46.0,"season_grade":"C-","base_grade":"C","base_depth":46.0,"fresh_7d":6.0,"season_progress":0.59,"incoming_inches":3.0,"alert":false,"status":"live","region_score":0.0,"region_grade":"F"},{"key":"wolf_creek","name":"Wolf Creek, CO","latitude":37.4722,"longitude":-106.793,"verified":true,"source":"snotel","region":"Colorado","country":"USA","country_code":"USA","score":88.2,"grade":"A+","in_season":true,"cover_depth":91.0,"season_grade":"B+","base_grade":"A","base_depth":91.0,"fresh_7d":25.0,"season_progress":0.66,"incoming_inches":0.0,"alert":false,"status":"live","region_score":100.0,"region_grade":"A+"}]