[{"key":"alta","name":"Alta, UT","latitude":40.5883,"longitude":-111.6386,"verified":true,"source":"snotel","region":"Utah","country":"USA","country_code":"USA","score":40.7,"grade":"B","in_season":true,"cover_depth":46.0,"season_grade":"B","base_grade":"C-","base_depth":46.0,"fresh_7d":0.0,"season_progress":0.38,"incoming_inches":0.0,"alert":false,"status":"live","region_score":57.0,"region_grade":"B-"},{"key":"alyeska","name":"Alyeska, AK","latitude":60.97,"longitude":-149.09,"verified":true,"source":"snotel","region":"Alaska","country":"USA","country_code":"USA","score":13.4,"grade":"C-","in_season":true,"cover_depth":35.0,"season_grade":"F","base_grade":"C-","base_depth":35.0,"fresh_7d":1.0,"season_progress":0.4,"incoming_inches":1.0,"alert":false,"status":"live","region_score":null,"region_grade":null},{"key":"arapahoe_basin","name":"Arapahoe Basin, CO","latitude":39.6425,"longitude":-105.8719,"verified":true,"source":"snotel","region":"Colorado","country":"USA","country_code":"USA","score":15.0,"grade":"C-","in_season":true,"cover_depth":23.0,"season_grade":"F","base_grade":"F","base_depth":23.0,"fresh_7d":5.0,"season_progress":0.44,"incoming_inches":6.0,"alert":false,"status":"live","region_score":44.0,"region_grade":"C+"},{"key":"aspen","name":"Aspen Mountain, CO","latitude":39.1859,"longitude":-106.8175,"verified":false,"source":"snotel","region":"Colorado","country":"USA","country_code":"USA","score":15.9,"grade":"C-","in_season":true,"cover_depth":17.0,"season_grade":"C-","base_grade":"F","base_depth":17.0,"fresh_7d":1.0,"season_progress":0.39,"incoming_inches":10.0,"alert":true,"status":"live","region_score":56.0,"region_grade":"B-"},{"key":"bachelor","name":"Mt Bachelor, OR","latitude":43.9793,"longitude":-121.688,"verified":false,"source":"snotel","region":"Pacific Northwest","country":"USA","country_code":"USA","score":4.5,"grade":"F","in_season":true,"cover_depth":6.0,"season_grade":"F","base_grade":"F","base_depth":6.0,"fresh_7d":0.0,"season_progress":0.37,"incoming_inches":0.0,"alert":false,"status":"live","region_score":0.0,"region_grade":"F"},{"key":"baker","name":"Mt Baker, WA","latitude":48.857,"longitude":-121.679,"verified":true,"source":"snotel","region":"Pacific Northwest","country":"USA","country_code":"USA","score":14.9,"grade":"C-","in_season":true,"cover_depth":25.0,"season_grade":"C","base_grade":"F","base_depth":25.0,"fresh_7d":0.0,"season_progress":0.37,"incoming_inches":0.0,"alert":false,"status":"live","region_score":50.0,"region_grade":"B-"},{"key":"big_sky","name":"Big Sky, MT","latitude":45.286,"longitude":-111.401,"verified":true,"source":"snotel","region":"Northern Rockies","country":"USA","country_code":"USA","score":27.5,"grade":"C+","in_season":true,"cover_depth":31.0,"season_grade":"B+","base_grade":"D","base_depth":31.0,"fresh_7d":0.0,"season_progress":0.38,"incoming_inches":1.0,"alert":false,"status":"live","region_score":50.0,"region_grade":"B-"},{"key":"big_white","name":"Big White, BC","latitude":49.716,"longitude":-118.933,"verified":false,"source":"bcsws","region":"British Columbia","country":"Canada","country_code":"CAN","score":11.8,"grade":"D","in_season":true,"cover_depth":25.6,"season_grade":"C","base_grade":"N/A","base_depth":null,"fresh_7d":null,"season_progress":0.4,"incoming_inches":0.0,"alert":false,"status":"live","region_score":33.0,"region_grade":"C"},{"key":"blue_mountain","name":"Blue Mountain, ON","latitude":44.501,"longitude":-80.311,"verified":false,"source":"eccc","region":"Eastern Canada","country":"Canada","country_code":"CAN","score":null,"grade":"N/A","in_season":null,"cover_depth":null,"season_grade":"N/A","base_grade":"N/A","base_depth":null,"fresh_7d":null,"season_progress":0.39,"incoming_inches":0.0,"alert":false,"status":"live","region_score":null,"region_grade":null},{"key":"bogus_basin","name":"Bogus Basin, ID","latitude":43.7626,"longitude":-116.101,"verified":true,"source":"snotel","region":"Northern Rockies","country":"USA","country_code":"USA","score":3.9,"grade":"F","in_season":true,"cover_depth":11.0,"season_grade":"F","base_grade":"F","base_depth":11.0,"fresh_7d":0.0,"season_progress":0.44,"incoming_inches":0.0,"alert":false,"status":"live","region_score":0.0,"region_grade":"F"},{"key":"breckenridge","name":"Breckenridge, CO","latitude":39.4817,"longitude":-106.0384,"verified":true,"source":"snotel","region":"Colorado","country":"USA","country_code":"USA","score":11.7,"grade":"D","in_season":true,"cover_depth":15.0,"season_grade":"C","base_grade":"F","base_depth":15.0,"fresh_7d":1.0,"season_progress":0.39,"incoming_inches":3.0,"alert":false,"status":"live","region_score":0.0,"region_grade":"F"},{"key":"brian_head","name":"Brian Head, UT","latitude":37.7025,"longitude":-112.8497,"verified":true,"source":"snotel","region":"Utah","country":"USA","country_code":"USA","score":25.6,"grade":"C+","in_season":true,"cover_depth":23.0,"season_grade":"C+","base_grade":"F","base_depth":23.0,"fresh_7d":0.0,"season_progress":0.41,"incoming_inches":4.0,"alert":false,"status":"live","region_score":43.0,"region_grade":"C+"},{"key":"bridger_bowl","name":"Bridger Bowl, MT","latitude":45.818,"longitude":-110.899,"verified":true,"source":"snotel","region":"Northern Rockies","country":"USA","country_code":"USA","score":28.0,"grade":"C+","in_season":true,"cover_depth":31.0,"season_grade":"A-","base_grade":"F","base_depth":31.0,"fresh_7d":0.0,"season_progress":0.38,"incoming_inches":1.0,"alert":false,"status":"live","region_score":67.0,"region_grade":"B"},{"key":"brighton","name":"Brighton, UT","latitude":40.5977,"longitude":-111.5836,"verified":true,"source":"snotel","region":"Utah","country":"USA","country_code":"USA","score":41.0,"grade":"B","in_season":true,"cover_depth":32.0,"season_grade":"B+","base_grade":"C-","base_depth":32.0,"fresh_7d":0.0,"season_progress":0.38,"incoming_inches":0.0,"alert":false,"status":"live","region_score":86.0,"region_grade":"A-"},{"key":"cardrona","name":"Cardrona, NZ","latitude":-44.8745,"longitude":168.9481,"verified":true,"source":"openmeteo","region":"New Zealand","country":"New Zealand","country_code":"NZL","score":12.0,"grade":"D","in_season":false,"cover_depth":0.0,"season_grade":"A+","base_grade":"F","base_depth":0.0,"fresh_7d":0.0,"season_progress":0.0,"incoming_inches":0.6,"alert":false,"status":"live","region_score":null,"region_grade":null},{"key":"cerro_catedral","name":"Cerro Catedral, AR","latitude":-41.1672,"longitude":-71.4406,"verified":true,"source":"openmeteo","region":"Argentina","country":"Argentina","country_code":"ARG","score":0.2,"grade":"F","in_season":false,"cover_depth":0.0,"season_grade":"F","base_grade":"F","base_depth":0.0,"fresh_7d":0.0,"season_progress":0.0,"incoming_inches":0.0,"alert":false,"status":"live","region_score":null,"region_grade":null},{"key":"copper","name":"Copper Mountain, CO","latitude":39.5022,"longitude":-106.1497,"verified":true,"source":"snotel","region":"Colorado","country":"USA","country_code":"USA","score":13.5,"grade":"C-","in_season":true,"cover_depth":18.0,"season_grade":"C","base_grade":"F","base_depth":18.0,"fresh_7d":1.0,"season_progress":0.39,"incoming_inches":5.0,"alert":false,"status":"live","region_score":22.0,"region_grade":"C-"},{"key":"coronet_peak","name":"Coronet Peak, NZ","latitude":-44.9206,"longitude":168.735,"verified":true,"source":"openmeteo","region":"New Zealand","country":"New Zealand","country_code":"NZL","score":12.0,"grade":"D","in_season":false,"cover_depth":0.0,"season_grade":"A-","base_grade":"F","base_depth":0.0,"fresh_7d":0.0,"season_progress":0.0,"incoming_inches":0.0,"alert":false,"status":"live","region_score":null,"region_grade":null},{"key":"crystal_mtn","name":"Crystal Mountain, WA","latitude":46.935,"longitude":-121.474,"verified":true,"source":"snotel","region":"Pacific Northwest","country":"USA","country_code":"USA","score":15.1,"grade":"C-","in_season":true,"cover_depth":47.0,"season_grade":"C-","base_grade":"F","base_depth":47.0,"fresh_7d":0.0,"season_progress":0.37,"incoming_inches":0.0,"alert":false,"status":"live","region_score":75.0,"region_grade":"B+"},{"key":"deer_valley","name":"Deer Valley, UT","latitude":40.6374,"longitude":-111.4783,"verified":true,"source":"snotel","region":"Utah","country":"USA","country_code":"USA","score":23.2,"grade":"C+","in_season":true,"cover_depth":32.0,"season_grade":"C+","base_grade":"F","base_depth":32.0,"fresh_7d":0.0,"season_progress":0.38,"incoming_inches":0.0,"alert":false,"status":"live","region_score":14.0,"region_grade":"D"},{"key":"falls_creek","name":"Falls Creek, AU","latitude":-36.8656,"longitude":147.2861,"verified":true,"source":"openmeteo","region":"Australia","country":"Australia","country_code":"AUS","score":12.0,"grade":"D","in_season":false,"cover_depth":0.0,"season_grade":"A","base_grade":"F","base_depth":0.0,"fresh_7d":0.0,"season_progress":0.0,"incoming_inches":0.0,"alert":false,"status":"live","region_score":null,"region_grade":null},{"key":"fernie","name":"Fernie, BC","latitude":49.463,"longitude":-115.091,"verified":true,"source":"eccc","region":"British Columbia","country":"Canada","country_code":"CAN","score":4.7,"grade":"F","in_season":false,"cover_depth":1.4,"season_grade":"F","base_grade":"N/A","base_depth":null,"fresh_7d":0.0,"season_progress":0.42,"incoming_inches":0.6,"alert":false,"status":"live","region_score":null,"region_grade":null},{"key":"grand_targhee","name":"Grand Targhee, WY","latitude":43.7871,"longitude":-110.9573,"verified":true,"source":"snotel","region":"Northern Rockies","country":"USA","country_code":"USA","score":45.7,"grade":"B","in_season":true,"cover_depth":68.0,"season_grade":"A","base_grade":"F","base_depth":68.0,"fresh_7d":0.0,"season_progress":0.38,"incoming_inches":2.0,"alert":false,"status":"live","region_score":83.0,"region_grade":"A-"},{"key":"heavenly","name":"Heavenly, CA","latitude":38.935,"longitude":-119.94,"verified":true,"source":"snotel","region":"Tahoe & Sierra","country":"USA","country_code":"USA","score":30.1,"grade":"B-","in_season":true,"cover_depth":26.0,"season_grade":"C+","base_grade":"C","base_depth":26.0,"fresh_7d":0.0,"season_progress":0.39,"incoming_inches":0.0,"alert":false,"status":"live","region_score":20.0,"region_grade":"C-"},{"key":"hood_meadows","name":"Mt Hood Meadows, OR","latitude":45.331,"longitude":-121.665,"verified":true,"source":"snotel","region":"Pacific Northwest","country":"USA","country_code":"USA","score":9.1,"grade":"D","in_season":true,"cover_depth":34.0,"season_grade":"F","base_grade":"F","base_depth":34.0,"fresh_7d":1.0,"season_progress":0.37,"incoming_inches":0.0,"alert":false,"status":"live","region_score":25.0,"region_grade":"C"},{"key":"hunter","name":"Hunter Mountain, NY","latitude":42.1779,"longitude":-74.2318,"verified":false,"source":"acis","region":"Northeast","country":"USA","country_code":"USA","score":34.9,"grade":"B-","in_season":true,"cover_depth":6.0,"season_grade":"A-","base_grade":"B","base_depth":6.0,"fresh_7d":3.7,"season_progress":0.41,"incoming_inches":11.0,"alert":true,"status":"live","region_score":50.0,"region_grade":"B-"},{"key":"jackson_hole","name":"Jackson Hole, WY","latitude":43.5875,"longitude":-110.8279,"verified":true,"source":"snotel","region":"Northern Rockies","country":"USA","country_code":"USA","score":49.9,"grade":"B","in_season":true,"cover_depth":50.0,"season_grade":"A-","base_grade":"C+","base_depth":50.0,"fresh_7d":0.0,"season_progress":0.38,"incoming_inches":1.0,"alert":false,"status":"live","region_score":100.0,"region_grade":"A+"},{"key":"june_mountain","name":"June Mountain, CA","latitude":37.7669,"longitude":-119.09,"verified":false,"source":"cdec","region":"Tahoe & Sierra","country":"USA","country_code":"USA","score":0.0,"grade":"F","in_season":null,"cover_depth":null,"season_grade":"F","base_grade":"N/A","base_depth":null,"fresh_7d":null,"season_progress":0.41,"incoming_inches":0.0,"alert":false,"status":"live","region_score":null,"region_grade":null},{"key":"keystone","name":"Keystone, CO","latitude":39.6084,"longitude":-105.9437,"verified":true,"source":"snotel","region":"Colorado","country":"USA","country_code":"USA","score":23.1,"grade":"C+","in_season":true,"cover_depth":23.0,"season_grade":"C+","base_grade":"F","base_depth":23.0,"fresh_7d":5.0,"season_progress":0.39,"incoming_inches":6.0,"alert":false,"status":"live","region_score":100.0,"region_grade":"A+"},{"key":"kicking_horse","name":"Kicking Horse, BC","latitude":51.298,"longitude":-117.047,"verified":false,"source":"eccc","region":"British Columbia","country":"Canada","country_code":"CAN","score":12.0,"grade":"D","in_season":false,"cover_depth":3.0,"season_grade":"B-","base_grade":"N/A","base_depth":null,"fresh_7d":0.0,"season_progress":0.42,"incoming_inches":0.0,"alert":false,"status":"live","region_score":null,"region_grade":null},{"key":"killington","name":"Killington, VT","latitude":43.6045,"longitude":-72.8201,"verified":false,"source":"acis","region":"Northeast","country":"USA","country_code":"USA","score":16.1,"grade":"C-","in_season":true,"cover_depth":6.0,"season_grade":"C-","base_grade":"B-","base_depth":6.0,"fresh_7d":3.1,"season_progress":0.41,"incoming_inches":8.2,"alert":true,"status":"live","region_score":12.0,"region_grade":"D"},{"key":"kirkwood","name":"Kirkwood, CA","latitude":38.6847,"longitude":-120.0654,"verified":true,"source":"snotel","region":"Tahoe & Sierra","country":"USA","country_code":"USA","score":41.0,"grade":"B","in_season":true,"cover_depth":41.0,"season_grade":"C+","base_grade":"C+","base_depth":41.0,"fresh_7d":0.0,"season_progress":0.39,"incoming_inches":0.0,"alert":false,"status":"live","region_score":60.0,"region_grade":"B"},{"key":"lake_louise","name":"Lake Louise, AB","latitude":51.4419,"longitude":-116.1653,"verified":true,"source":"openmeteo","region":"Alberta","country":"Canada","country_code":"CAN","score":50.0,"grade":"B+","in_season":true,"cover_depth":40.2,"season_grade":"A","base_grade":"C+","base_depth":40.0,"fresh_7d":0.2,"season_progress":0.42,"incoming_inches":0.6,"alert":false,"status":"live","region_score":100.0,"region_grade":"A+"},{"key":"las_lenas","name":"Las Lenas, AR","latitude":-35.1497,"longitude":-70.0781,"verified":true,"source":"openmeteo","region":"Argentina","country":"Argentina","country_code":"ARG","score":5.3,"grade":"F","in_season":false,"cover_depth":0.0,"season_grade":"C","base_grade":"F","base_depth":0.0,"fresh_7d":0.0,"season_progress":0.0,"incoming_inches":0.1,"alert":false,"status":"live","region_score":null,"region_grade":null},{"key":"mammoth","name":"Mammoth Mountain, CA","latitude":37.6308,"longitude":-119.0326,"verified":true,"source":"cdec","region":"Tahoe & Sierra","country":"USA","country_code":"USA","score":43.0,"grade":"B","in_season":true,"cover_depth":60.0,"season_grade":"C","base_grade":"B-","base_depth":60.0,"fresh_7d":0.0,"season_progress":0.39,"incoming_inches":0.0,"alert":false,"status":"live","region_score":80.0,"region_grade":"A-"},{"key":"marmot_basin","name":"Marmot Basin, AB","latitude":52.7997,"longitude":-118.0817,"verified":true,"source":"openmeteo","region":"Alberta","country":"Canada","country_code":"CAN","score":39.3,"grade":"B","in_season":true,"cover_depth":42.5,"season_grade":"A-","base_grade":"C+","base_depth":43.0,"fresh_7d":0.2,"season_progress":0.41,"incoming_inches":0.7,"alert":false,"status":"live","region_score":67.0,"region_grade":"B"},{"key":"mont_sainte_anne","name":"Mont-Sainte-Anne, QC","latitude":47.075,"longitude":-70.904,"verified":true,"source":"eccc","region":"Eastern Canada","country":"Canada","country_code":"CAN","score":40.3,"grade":"B","in_season":true,"cover_depth":14.6,"season_grade":"C+","base_grade":"N/A","base_depth":null,"fresh_7d":18.5,"season_progress":0.41,"incoming_inches":2.6,"alert":false,"status":"live","region_score":null,"region_grade":null},{"key":"mont_tremblant","name":"Mont Tremblant, QC","latitude":46.21,"longitude":-74.585,"verified":false,"source":"eccc","region":"Eastern Canada","country":"Canada","country_code":"CAN","score":null,"grade":"N/A","in_season":null,"cover_depth":null,"season_grade":"N/A","base_grade":"N/A","base_depth":null,"fresh_7d":null,"season_progress":0.42,"incoming_inches":0.0,"alert":false,"status":"live","region_score":null,"region_grade":null},{"key":"mt_buller","name":"Mt Buller, AU","latitude":-37.1467,"longitude":146.4473,"verified":true,"source":"openmeteo","region":"Australia","country":"Australia","country_code":"AUS","score":12.0,"grade":"D","in_season":false,"cover_depth":0.0,"season_grade":"A","base_grade":"F","base_depth":0.0,"fresh_7d":0.0,"season_progress":0.0,"incoming_inches":0.0,"alert":false,"status":"live","region_score":null,"region_grade":null},{"key":"mt_hotham","name":"Mt Hotham, AU","latitude":-36.9761,"longitude":147.1358,"verified":true,"source":"openmeteo","region":"Australia","country":"Australia","country_code":"AUS","score":12.0,"grade":"D","in_season":false,"cover_depth":0.0,"season_grade":"A-","base_grade":"F","base_depth":0.0,"fresh_7d":0.0,"season_progress":0.0,"incoming_inches":0.0,"alert":false,"status":"live","region_score":null,"region_grade":null},{"key":"mt_hutt","name":"Mt Hutt, NZ","latitude":-43.4706,"longitude":171.5306,"verified":true,"source":"openmeteo","region":"New Zealand","country":"New Zealand","country_code":"NZL","score":12.0,"grade":"D","in_season":false,"cover_depth":0.0,"season_grade":"C+","base_grade":"F","base_depth":0.0,"fresh_7d":0.0,"season_progress":0.0,"incoming_inches":0.0,"alert":false,"status":"live","region_score":null,"region_grade":null},{"key":"mt_rose","name":"Mt Rose, NV","latitude":39.3287,"longitude":-119.885,"verified":true,"source":"snotel","region":"Tahoe & Sierra","country":"USA","country_code":"USA","score":53.2,"grade":"B+","in_season":true,"cover_depth":61.0,"season_grade":"B","base_grade":"C+","base_depth":61.0,"fresh_7d":0.0,"season_progress":0.39,"incoming_inches":0.0,"alert":false,"status":"live","region_score":100.0,"region_grade":"A+"},{"key":"nakiska","name":"Nakiska, AB","latitude":50.942,"longitude":-115.156,"verified":true,"source":"eccc","region":"Alberta","country":"Canada","country_code":"CAN","score":null,"grade":"N/A","in_season":null,"cover_depth":null,"season_grade":"N/A","base_grade":"N/A","base_depth":null,"fresh_7d":null,"season_progress":0.43,"incoming_inches":0.0,"alert":false,"status":"live","region_score":null,"region_grade":null},{"key":"nevados_de_chillan","name":"Nevados de Chillan, CL","latitude":-36.9058,"longitude":-71.4064,"verified":true,"source":"openmeteo","region":"Chile","country":"Chile","country_code":"CHL","score":12.0,"grade":"D","in_season":false,"cover_depth":0.0,"season_grade":"A-","base_grade":"F","base_depth":0.0,"fresh_7d":0.0,"season_progress":0.0,"incoming_inches":0.0,"alert":false,"status":"live","region_score":null,"region_grade":null},{"key":"norquay","name":"Mt Norquay, AB","latitude":51.2097,"longitude":-115.5952,"verified":true,"source":"openmeteo","region":"Alberta","country":"Canada","country_code":"CAN","score":35.5,"grade":"B-","in_season":true,"cover_depth":24.8,"season_grade":"A","base_grade":"C+","base_depth":25.0,"fresh_7d":0.1,"season_progress":0.42,"incoming_inches":0.7,"alert":false,"status":"live","region_score":33.0,"region_grade":"C"},{"key":"palisades_tahoe","name":"Palisades Tahoe, CA","latitude":39.197,"longitude":-120.2357,"verified":true,"source":"snotel","region":"Tahoe & Sierra","country":"USA","country_code":"USA","score":35.8,"grade":"B-","in_season":true,"cover_depth":43.0,"season_grade":"C+","base_grade":"C","base_depth":43.0,"fresh_7d":0.0,"season_progress":0.39,"incoming_inches":0.0,"alert":false,"status":"live","region_score":40.0,"region_grade":"C+"},{"key":"park_city","name":"Park City, UT","latitude":40.6514,"longitude":-111.508,"verified":true,"source":"snotel","region":"Utah","country":"USA","country_code":"USA","score":23.2,"grade":"C+","in_season":true,"cover_depth":32.0,"season_grade":"C+","base_grade":"F","base_depth":32.0,"fresh_7d":0.0,"season_progress":0.38,"incoming_inches":0.0,"alert":false,"status":"live","region_score":14.0,"region_grade":"D"},{"key":"perisher","name":"Perisher, AU","latitude":-36.4058,"longitude":148.4131,"verified":true,"source":"openmeteo","region":"Australia","country":"Australia","country_code":"AUS","score":12.0,"grade":"D","in_season":false,"cover_depth":0.0,"season_grade":"A","base_grade":"F","base_depth":0.0,"fresh_7d":0.0,"season_progress":0.0,"incoming_inches":0.0,"alert":false,"status":"live","region_score":null,"region_grade":null},{"key":"portillo","name":"Portillo, CL","latitude":-32.8353,"longitude":-70.1281,"verified":true,"source":"openmeteo","region":"Chile","country":"Chile","country_code":"CHL","score":12.0,"grade":"D","in_season":false,"cover_depth":0.0,"season_grade":"B-","base_grade":"F","base_depth":0.0,"fresh_7d":0.0,"season_progress":0.0,"incoming_inches":0.4,"alert":false,"status":"live","region_score":null,"region_grade":null},{"key":"powder_mtn","name":"Powder Mountain, UT","latitude":41.38,"longitude":-111.78,"verified":true,"source":"snotel","region":"Utah","country":"USA","country_code":"USA","score":16.3,"grade":"C-","in_season":true,"cover_depth":32.0,"season_grade":"C","base_grade":"F","base_depth":32.0,"fresh_7d":0.0,"season_progress":0.38,"incoming_inches":0.0,"alert":false,"status":"live","region_score":0.0,"region_grade":"F"},{"key":"red_mountain","name":"Red Mountain, BC","latitude":49.101,"longitude":-117.82,"verified":false,"source":"eccc","region":"British Columbia","country":"Canada","country_code":"CAN","score":null,"grade":"N/A","in_season":null,"cover_depth":null,"season_grade":"N/A","base_grade":"N/A","base_depth":null,"fresh_7d":null,"season_progress":0.43,"incoming_inches":0.0,"alert":false,"status":"live","region_score":null,"region_grade":null},{"key":"revelstoke","name":"Revelstoke, BC","latitude":50.958,"longitude":-118.163,"verified":true,"source":"bcsws","region":"British Columbia","country":"Canada","country_code":"CAN","score":87.5,"grade":"A+","in_season":true,"cover_depth":102.9,"season_grade":"A+","base_grade":"N/A","base_depth":null,"fresh_7d":null,"season_progress":0.4,"incoming_inches":0.0,"alert":false,"status":"live","region_score":100.0,"region_grade":"A+"},{"key":"schweitzer","name":"Schweitzer, ID","latitude":48.369,"longitude":-116.623,"verified":true,"source":"snotel","region":"Northern Rockies","country":"USA","country_code":"USA","score":16.4,"grade":"C-","in_season":true,"cover_depth":57.0,"season_grade":"C-","base_grade":"F","base_depth":57.0,"fresh_7d":0.0,"season_progress":0.37,"incoming_inches":0.0,"alert":false,"status":"live","region_score":17.0,"region_grade":"C-"},{"key":"silver_star","name":"Silver Star, BC","latitude":50.3583,"longitude":-119.0625,"verified":true,"source":"bcsws","region":"British Columbia","country":"Canada","country_code":"CAN","score":41.3,"grade":"B","in_season":true,"cover_depth":48.3,"season_grade":"B+","base_grade":"N/A","base_depth":null,"fresh_7d":null,"season_progress":0.4,"incoming_inches":0.0,"alert":false,"status":"live","region_score":83.0,"region_grade":"A-"},{"key":"snowbird","name":"Snowbird, UT","latitude":40.581,"longitude":-111.6556,"verified":true,"source":"snotel","region":"Utah","country":"USA","country_code":"USA","score":40.7,"grade":"B","in_season":true,"cover_depth":46.0,"season_grade":"B","base_grade":"C-","base_depth":46.0,"fresh_7d":0.0,"season_progress":0.38,"incoming_inches":0.0,"alert":false,"status":"live","region_score":57.0,"region_grade":"B-"},{"key":"solitude","name":"Solitude, UT","latitude":40.6199,"longitude":-111.5919,"verified":true,"source":"snotel","region":"Utah","country":"USA","country_code":"USA","score":41.0,"grade":"B","in_season":true,"cover_depth":32.0,"season_grade":"B+","base_grade":"C-","base_depth":32.0,"fresh_7d":0.0,"season_progress":0.38,"incoming_inches":0.0,"alert":false,"status":"live","region_score":86.0,"region_grade":"A-"},{"key":"steamboat","name":"Steamboat, CO","latitude":40.457,"longitude":-106.8045,"verified":true,"source":"snotel","region":"Colorado","country":"USA","country_code":"USA","score":20.8,"grade":"C","in_season":true,"cover_depth":30.0,"season_grade":"C","base_grade":"F","base_depth":30.0,"fresh_7d":0.0,"season_progress":0.39,"incoming_inches":5.0,"alert":false,"status":"live","region_score":89.0,"region_grade":"A"},{"key":"stevens_pass","name":"Stevens Pass, WA","latitude":47.7448,"longitude":-121.089,"verified":true,"source":"snotel","region":"Pacific Northwest","country":"USA","country_code":"USA","score":23.8,"grade":"C+","in_season":true,"cover_depth":33.0,"season_grade":"C","base_grade":"F","base_depth":33.0,"fresh_7d":0.0,"season_progress":0.37,"incoming_inches":0.0,"alert":false,"status":"live","region_score":100.0,"region_grade":"A+"},{"key":"stowe","name":"Stowe, VT","latitude":44.5303,"longitude":-72.7814,"verified":false,"source":"acis","region":"Northeast","country":"USA","country_code":"USA","score":36.2,"grade":"B-","in_season":true,"cover_depth":14.0,"season_grade":"B+","base_grade":"B+","base_depth":14.0,"fresh_7d":7.3,"season_progress":0.41,"incoming_inches":8.4,"alert":true,"status":"live","region_score":62.0,"region_grade":"B"},{"key":"stratton","name":"Stratton, VT","latitude":43.1134,"longitude":-72.9081,"verified":false,"source":"acis","region":"Northeast","country":"USA","country_code":"USA","score":48.0,"grade":"B","in_season":true,"cover_depth":17.0,"season_grade":"A-","base_grade":"B","base_depth":17.0,"fresh_7d":10.6,"season_progress":0.41,"incoming_inches":7.7,"alert":false,"status":"live","region_score":75.0,"region_grade":"B+"},{"key":"sugarbush","name":"Sugarbush, VT","latitude":44.136,"longitude":-72.9037,"verified":false,"source":"acis","region":"Northeast","country":"USA","country_code":"USA","score":12.0,"grade":"D","in_season":false,"cover_depth":5.0,"season_grade":"C+","base_grade":"C","base_depth":5.0,"fresh_7d":null,"season_progress":0.41,"incoming_inches":9.5,"alert":true,"status":"live","region_score":null,"region_grade":null},{"key":"sugarloaf","name":"Sugarloaf, ME","latitude":45.0314,"longitude":-70.3131,"verified":false,"source":"acis","region":"Northeast","country":"USA","country_code":"USA","score":32.0,"grade":"B-","in_season":true,"cover_depth":11.0,"season_grade":"B+","base_grade":"C+","base_depth":11.0,"fresh_7d":4.7,"season_progress":0.41,"incoming_inches":10.0,"alert":true,"status":"live","region_score":38.0,"region_grade":"C+"},{"key":"sun_peaks","name":"Sun Peaks, BC","latitude":50.884,"longitude":-119.888,"verified":false,"source":"eccc","region":"British Columbia","country":"Canada","country_code":"CAN","score":11.3,"grade":"D","in_season":false,"cover_depth":1.1,"season_grade":"B-","base_grade":"N/A","base_depth":null,"fresh_7d":0.0,"season_progress":0.43,"incoming_inches":0.0,"alert":false,"status":"live","region_score":null,"region_grade":null},{"key":"sun_valley","name":"Sun Valley, ID","latitude":43.671,"longitude":-114.351,"verified":false,"source":"snotel","region":"Northern Rockies","country":"USA","country_code":"USA","score":27.2,"grade":"C+","in_season":true,"cover_depth":25.0,"season_grade":"B-","base_grade":"C-","base_depth":25.0,"fresh_7d":0.0,"season_progress":0.38,"incoming_inches":0.0,"alert":false,"status":"live","region_score":33.0,"region_grade":"C"},{"key":"sunday_river","name":"Sunday River, ME","latitude":44.4735,"longitude":-70.8568,"verified":false,"source":"acis","region":"Northeast","country":"USA","country_code":"USA","score":21.7,"grade":"C","in_season":true,"cover_depth":8.0,"season_grade":"B-","base_grade":"C","base_depth":8.0,"fresh_7d":2.8,"season_progress":0.41,"incoming_inches":14.0,"alert":true,"status":"live","region_score":25.0,"region_grade":"C"},{"key":"sunshine_village","name":"Sunshine Village, AB","latitude":51.0784,"longitude":-115.7767,"verified":true,"source":"openmeteo","region":"Alberta","country":"Canada","country_code":"CAN","score":32.9,"grade":"B-","in_season":true,"cover_depth":26.0,"season_grade":"A","base_grade":"F","base_depth":26.0,"fresh_7d":0.1,"season_progress":0.39,"incoming_inches":0.2,"alert":false,"status":"live","region_score":0.0,"region_grade":"F"},{"key":"taos","name":"Taos Ski Valley, NM","latitude":36.596,"longitude":-105.447,"verified":true,"source":"snotel","region":"Southwest","country":"USA","country_code":"USA","score":15.6,"grade":"C-","in_season":true,"cover_depth":18.0,"season_grade":"C-","base_grade":"F","base_depth":18.0,"fresh_7d":0.0,"season_progress":0.39,"incoming_inches":10.0,"alert":true,"status":"live","region_score":null,"region_grade":null},{"key":"telluride","name":"Telluride, CO","latitude":37.9375,"longitude":-107.8123,"verified":true,"source":"snotel","region":"Colorado","country":"USA","country_code":"USA","score":14.5,"grade":"C-","in_season":true,"cover_depth":26.0,"season_grade":"D","base_grade":"F","base_depth":26.0,"fresh_7d":0.0,"season_progress":0.39,"incoming_inches":15.0,"alert":true,"status":"live","region_score":33.0,"region_grade":"C"},{"key":"the_remarkables","name":"The Remarkables, NZ","latitude":-45.0553,"longitude":168.8144,"verified":true,"source":"openmeteo","region":"New Zealand","country":"New Zealand","country_code":"NZL","score":12.0,"grade":"D","in_season":false,"cover_depth":0.0,"season_grade":"A","base_grade":"F","base_depth":0.0,"fresh_7d":0.0,"season_progress":0.0,"incoming_inches":0.0,"alert":false,"status":"live","region_score":null,"region_grade":null},{"key":"thredbo","name":"Thredbo, AU","latitude":-36.5004,"longitude":148.3025,"verified":true,"source":"openmeteo","region":"Australia","country":"Australia","country_code":"AUS","score":12.0,"grade":"D","in_season":false,"cover_depth":0.0,"season_grade":"A","base_grade":"F","base_depth":0.0,"fresh_7d":0.0,"season_progress":0.0,"incoming_inches":0.0,"alert":false,"status":"live","region_score":null,"region_grade":null},{"key":"treble_cone","name":"Treble Cone, NZ","latitude":-44.6316,"longitude":168.8975,"verified":true,"source":"openmeteo","region":"New Zealand","country":"New Zealand","country_code":"NZL","score":12.0,"grade":"D","in_season":false,"cover_depth":0.0,"season_grade":"A+","base_grade":"F","base_depth":0.0,"fresh_7d":0.0,"season_progress":0.0,"incoming_inches":0.0,"alert":false,"status":"live","region_score":null,"region_grade":null},{"key":"vail","name":"Vail, CO","latitude":39.6061,"longitude":-106.355,"verified":true,"source":"snotel","region":"Colorado","country":"USA","country_code":"USA","score":12.5,"grade":"D","in_season":true,"cover_depth":18.0,"season_grade":"D","base_grade":"F","base_depth":18.0,"fresh_7d":1.0,"season_progress":0.39,"incoming_inches":8.0,"alert":true,"status":"live","region_score":11.0,"region_grade":"D"},{"key":"valle_nevado","name":"Valle Nevado, CL","latitude":-33.3547,"longitude":-70.2489,"verified":true,"source":"openmeteo","region":"Chile","country":"Chile","country_code":"CHL","score":6.8,"grade":"F","in_season":false,"cover_depth":0.0,"season_grade":"C","base_grade":"F","base_depth":0.0,"fresh_7d":0.0,"season_progress":0.0,"incoming_inches":0.6,"alert":false,"status":"live","region_score":null,"region_grade":null},{"key":"whakapapa","name":"Whakapapa, NZ","latitude":-39.2546,"longitude":175.5606,"verified":true,"source":"openmeteo","region":"New Zealand","country":"New Zealand","country_code":"NZL","score":12.0,"grade":"D","in_season":false,"cover_depth":0.0,"season_grade":"A-","base_grade":"F","base_depth":0.0,"fresh_7d":0.0,"season_progress":0.0,"incoming_inches":0.0,"alert":false,"status":"live","region_score":null,"region_grade":null},{"key":"whistler_blackcomb","name":"Whistler Blackcomb, BC","latitude":50.115,"longitude":-122.948,"verified":true,"source":"eccc","region":"British Columbia","country":"Canada","country_code":"CAN","score":22.2,"grade":"C","in_season":true,"cover_depth":17.1,"season_grade":"C+","base_grade":"N/A","base_depth":null,"fresh_7d":0.0,"season_progress":0.4,"incoming_inches":0.0,"alert":false,"status":"live","region_score":67.0,"region_grade":"B"},{"key":"whiteface","name":"Whiteface, NY","latitude":44.3659,"longitude":-73.9026,"verified":true,"source":"acis","region":"Northeast","country":"USA","country_code":"USA","score":71.6,"grade":"A","in_season":true,"cover_depth":28.0,"season_grade":"A+","base_grade":"A+","base_depth":28.0,"fresh_7d":13.8,"season_progress":0.41,"incoming_inches":7.0,"alert":false,"status":"live","region_score":100.0,"region_grade":"A+"},{"key":"wildcat","name":"Wildcat, NH","latitude":44.2646,"longitude":-71.239,"verified":true,"source":"acis","region":"Northeast","country":"USA","country_code":"USA","score":52.0,"grade":"B+","in_season":true,"cover_depth":23.0,"season_grade":"A-","base_grade":"B","base_depth":23.0,"fresh_7d":7.1,"season_progress":0.41,"incoming_inches":14.0,"alert":true,"status":"live","region_score":88.0,"region_grade":"A-"},{"key":"winter_park","name":"Winter Park, CO","latitude":39.8868,"longitude":-105.7625,"verified":true,"source":"snotel","region":"Colorado","country":"USA","country_code":"USA","score":17.9,"grade":"C","in_season":true,"cover_depth":24.0,"season_grade":"C","base_grade":"F","base_depth":24.0,"fresh_7d":4.0,"season_progress":0.39,"incoming_inches":4.0,"alert":false,"status":"live","region_score":67.0,"region_grade":"B"},{"key":"wolf_creek","name":"Wolf Creek, CO","latitude":37.4722,"longitude":-106.793,"verified":true,"source":"snotel","region":"Colorado","country":"USA","country_code":"USA","score":19.0,"grade":"C","in_season":true,"cover_depth":30.0,"season_grade":"C-","base_grade":"F","base_depth":30.0,"fresh_7d":0.0,"season_progress":0.5,"incoming_inches":10.0,"alert":true,"status":"live","region_score":78.0,"region_grade":"B+"}]